{
    "type": "FeatureCollection",
    "features": [
      {
        "type": "Feature",
        "properties": {
          "id": 1,
          "name": "生活在他方-夜貓店",
          "site": "116台北市文山區指南路三段40巷8-5號",
          "time":"1200~0200",
          "score":"4.8",
          "lat":24.970913,
          "lng":121.5906222

        }
      },
      {
        "type": "Feature",
        "properties": {
          "id": 2,
          "name": "雪敲",
          "site": "116台北市文山區指南路三段38巷33-2號",
          "time":"1100~1900",
          "score":"4.8",
          "lat":24.9670823,
          "lng":121.5908608
        }
      },
      {
        "type": "Feature",
        "properties": {
          "id": 3,
          "name": "自由·之丘",
          "site": "116台北市文山區木新路二段69巷1號1樓",
          "time":"1400~2200",
          "score":"4.8",
          "lat":24.9858893,
          "lng":121.5683287
        }
      },
      {
        "type": "Feature",
        "properties": {
          "id": 4,
          "name": "2730café 貳柒參零咖啡",
          "site": " 106台北市大安區延吉街288號",
          "time":"1200~2200",
          "score":"4.6",
          "lat":25.033999,
          "lng":121.5550136

        }
      },
      {
        "type": "Feature",
        "properties": {
          "id": 5,
          "name": "Ruins Coffee Roasters",
          "site": " 116台北市文山區木柵路三段242號",
          "time":"1300~2100",
          "score":"4.5",
          "lat":24.9907454,
          "lng":121.568474

        }
      },
      {
        "type": "Feature",
        "properties": {
          "id": 6,
          "name": "Homey's cafe",
          "site": " 106台北市大安區敦化南路一段236巷36號2樓",
          "time":"1200~2300",
          "score":"4.3",
          "lat":25.0405171,
          "lng":121.5440051
        }
      },
      {
        "type": "Feature",
        "properties": {
          "id": 7,
          "name": "Mimi's Cafe米米咖啡",
          "site": " 100台北市中正區羅斯福路三段284巷15號",
          "time":"1200~2200",
          "score":"4.3",
          "lat":25.0205242,
          "lng":121.5029984
        }
      },
      {
        "type": "Feature",
        "properties": {
          "id": 8,
          "name": "畬室法式巧克力甜點創作 YU CHOCOLATIER",
          "site": "106台北市大安區仁愛路四段112巷3弄10號",
          "time":"1200~2000",
          "score":"4.6",
          "lat":25.0370159,
          "lng":121.5475099
        }
      },
      {
        "type": "Feature",
        "properties": {
          "id": 9,
          "name": "貓空閒咖啡",
          "site": "116台北市文山區指南路三段38巷33-7號",
          "time":"1000~0000",
          "score":"4.1",
          "lat":24.9678778,
          "lng":121.5889593
        }
      },
      {
        "type": "Feature",
        "properties": {
          "id": 10,
          "name": "Modism Café 摩德年代 士林店",
          "site": "111台北市士林區中正路235巷29號",
          "time":"1430~0000",
          "score":"4.6",
          "lat":25.0927378,
          "lng":121.5241214
        }
      }
      
    ]
  }